{
	"randomEvents": [
		{
            "geometry": {
                "location": {
                    "lat": 6.45,
                    "lng": 3.4333
                }
            },
			"date": "Saturday, March 7, 2015",
			"name": "beardsley"
		},
		{
            "geometry": {
                "location": {
                    "lat": 6.45,
                    "lng": 3.4333
                }
            },
			"date": "Thursday, March 12, 2015",
			"name": "unwithstanding"
		},
		{
            "geometry": {
                "location": {
                    "lat": 6.488328,
                    "lng": 3.324614
                }
            },
			"date": "Saturday, April 4, 2015",
			"name": "gabrielle"
		},
		{
            "geometry": {
                "location": {
                    "lat": 6.537533,
                    "lng": 3.346324
                }
            },
			"date": "Saturday, May 9, 2015",
			"name": "gï¿¥ï¾¡teborg"
		},
		{
            "geometry": {
                "location": {
                    "lat": 6.448549,
                    "lng": 3.402458
                }
            },
			"date": "Sunday, May 10, 2015",
			"name": "humidor"
		},
		{
            "geometry": {
                "location": {
                    "lat": 6.531892,
                    "lng": 3.334976
                }
            },
			"date": "Monday, May 11, 2015",
			"name": "uninvested"
		},
		{
            "geometry": {
                "location": {
                    "lat": 6.505429,
                    "lng": 3.374557
                }
            },
			"date": "Monday, June 1, 2015",
			"name": "spinnable"
		},
		{
            "geometry": {
                "location": {
                    "lat": 6.487276,
                    "lng": 3.384792
                }
            },
			"date": "Monday, June 15, 2015",
			"name": "undetestable"
		},
		{
            "geometry": {
                "location": {
                    "lat": 6.664112,
                    "lng": 3.518085
                }
            },
			"date": "Friday, June 26, 2015",
			"name": "prepersuade"
		},
		{
            "geometry": {
                "location": {
                    "lat": 6.442562,
                    "lng": 3.402054
                }
            },
			"date": "Monday, March 2, 2015",
			"name": "verulamian"
		},
		{
            "geometry": {
                "location": {
                    "lat": 6.575317,
                    "lng": 3.362234
                }
            },
			"date": "Friday, April 3, 2015",
			"name": "griffinage"
		},
		{
            "geometry": {
                "location": {
                    "lat": 6.454095,
                    "lng": 3.403305
                }
            },
			"date": "Sunday, April 26, 2015",
			"name": "cosey"
		},
		{
            "geometry": {
                "location": {
                    "lat": 6.554938,
                    "lng": 3.270111
                }
            },
			"date": "Sunday, December 6, 2015",
			"name": "hyperhidrosis"
		},
		{
            "geometry": {
                "location": {
                    "lat": 6.435236,
                    "lng": 3.451241
                }
            },
			"date": "Friday, December 11, 2015",
			"name": "nonsuggestible"
		}
	]
}